,City,Lat,Lng,Max Temp,Humidity,Cloudiness,Wind Speed,Country,Date
0,Dikson,73.51,80.55,-3.97,94,98,7.26,RU,1603165638
1,Rikitea,-23.12,-134.97,23.47,77,0,5.23,PF,1603165589
2,San Cristobal,7.77,-72.22,19.54,83,95,0.69,VE,1603165631
3,Ushuaia,-54.8,-68.3,2.0,89,75,15.4,AR,1603165556
4,Busselton,-33.65,115.33,25.0,33,5,2.91,AU,1603165642
5,Moindou,-21.69,165.68,29.0,48,30,4.1,NC,1603165644
6,Coquimbo,-29.95,-71.34,13.0,76,0,5.1,CL,1603165148
7,Cape Town,-33.93,18.42,14.44,93,75,1.0,ZA,1603165515
8,Fortuna,40.6,-124.16,13.33,100,90,2.6,US,1603165647
9,Provideniya,64.38,-173.3,4.0,80,75,1.0,RU,1603165527
10,Bonavista,48.65,-53.11,9.44,86,26,5.63,CA,1603165649
11,Souillac,-20.52,57.52,24.0,78,40,5.1,MU,1603165508
12,Casino,-28.87,153.05,24.0,47,91,4.6,AU,1603165652
13,Warwick,41.7,-71.42,12.22,87,75,0.78,US,1603165653
14,Kalmunai,7.42,81.82,30.21,54,30,1.61,LK,1603165654
15,Hasaki,35.73,140.83,21.11,60,75,6.2,JP,1603165471
16,Leningradskiy,69.38,178.42,-3.46,90,27,3.03,RU,1603165642
17,Jamestown,42.1,-79.24,12.22,100,90,2.1,US,1603165436
18,Bethel,41.37,-73.41,12.0,93,1,1.54,US,1603165659
19,Vila Franca do Campo,37.72,-25.43,15.0,82,40,7.7,PT,1603165569
20,Tiksi,71.69,128.87,-9.52,92,100,10.61,RU,1603165634
21,Hong Kong,22.29,114.16,26.11,64,0,0.89,HK,1603165437
22,La Crosse,43.8,-91.24,2.0,59,90,1.39,US,1603165387
23,Mataura,-46.19,168.86,11.11,69,89,5.36,NZ,1603165665
24,Abay,49.63,72.85,-1.0,58,23,2.0,KZ,1603165666
25,Hokitika,-42.72,170.97,13.35,65,31,4.64,NZ,1603165667
26,Avarua,-21.21,-159.78,27.0,74,61,1.5,CK,1603165377
27,Xining,36.62,101.77,7.71,49,12,1.35,CN,1603165394
28,Castro,-24.79,-50.01,17.39,91,66,4.2,BR,1603165670
29,Aklavik,68.22,-135.01,-5.0,92,90,1.5,CA,1603165672
30,Atuona,-9.8,-139.03,25.87,75,1,8.24,PF,1603165637
31,Kavieng,-2.57,150.8,28.64,70,99,1.5,PG,1603165674
32,Negombo,7.21,79.84,28.0,78,40,2.1,LK,1603165675
33,Zmeinogorsk,51.16,82.19,5.21,57,98,5.15,RU,1603165676
34,Prince Rupert,54.32,-130.32,9.0,70,90,2.1,CA,1603165678
35,Buchanan,5.88,-10.05,24.83,88,74,2.67,LR,1603165679
36,Tuktoyaktuk,69.45,-133.04,-6.0,85,90,5.1,CA,1603165680
37,Malanje,-9.54,16.34,18.99,93,81,3.02,AO,1603165681
38,Albany,42.6,-73.97,13.89,79,100,3.74,US,1603165682
39,Hamilton,39.18,-84.53,12.22,93,90,3.6,US,1603165642
40,Soe,-9.86,124.28,31.74,32,0,4.29,ID,1603165685
41,Quime,-16.98,-67.22,10.25,68,79,1.39,BO,1603165686
42,Petropavlovsk-Kamchatskiy,53.05,158.65,7.0,42,40,5.0,RU,1603165451
43,Yorosso,12.35,-4.78,24.27,67,0,1.88,ML,1603165688
44,Mildura,-34.2,142.15,23.89,28,69,3.6,AU,1603165689
45,Ilulissat,69.22,-51.1,3.0,74,100,3.1,GL,1603165658
46,Bengkulu,-3.8,102.27,29.7,62,100,1.31,ID,1603165692
47,Port Elizabeth,-33.92,25.57,16.0,72,70,9.3,ZA,1603165693
48,Buraidah,26.33,43.98,15.0,41,0,2.6,SA,1603165694
49,Chokurdakh,70.63,147.92,-8.69,98,95,2.64,RU,1603165695
50,Vila,42.03,-8.16,12.78,95,87,1.79,PT,1603165696
51,Qaanaaq,77.48,-69.36,-1.55,86,73,4.0,GL,1603165698
52,East London,-33.02,27.91,16.0,77,40,7.7,ZA,1603165637
53,Blagoveshchenka,52.83,79.87,6.33,58,96,6.59,RU,1603165700
54,Rocha,-34.48,-54.33,13.86,93,94,6.48,UY,1603165701
55,Punta Alta,-38.88,-62.07,9.68,49,0,5.69,AR,1603165702
56,Gao,16.64,1.64,30.35,18,0,2.45,ML,1603165703
57,Saint-Philippe,-21.36,55.77,26.0,44,35,1.5,RE,1603165705
58,Lyambir',54.28,45.12,1.93,86,45,5.77,RU,1603165706
59,Vaini,-21.2,-175.2,25.0,65,20,5.1,TO,1603165707
60,Cidreira,-30.18,-50.21,19.27,93,1,5.44,BR,1603165708
61,Hilo,19.73,-155.09,27.0,65,1,4.1,US,1603165572
62,Olafsvik,64.89,-23.71,3.69,75,60,3.5,IS,1603165711
63,Vostok,46.49,135.88,8.35,51,0,1.97,RU,1603165712
64,Nago,26.59,127.98,30.0,62,40,10.8,JP,1603165713
65,Rosarito,32.33,-117.03,20.0,93,5,3.1,MX,1603165714
66,Kaitangata,-46.28,169.85,12.66,51,90,3.27,NZ,1603165715
67,Acaraú,-2.89,-40.12,25.77,81,12,7.78,BR,1603165717
68,Hithadhoo,-0.6,73.08,28.15,78,89,5.74,MV,1603165718
69,Waingapu,-9.66,120.26,30.68,62,0,4.82,ID,1603165719
70,Point Pedro,9.82,80.23,28.66,74,100,7.36,LK,1603165720
71,Saldanha,-33.01,17.94,11.0,81,58,0.5,ZA,1603165643
72,Mahébourg,-20.41,57.7,24.0,78,40,5.1,MU,1603165599
73,Tezu,27.92,96.17,24.49,83,83,0.38,IN,1603165724
74,Saint George,37.1,-113.58,23.0,13,1,0.81,US,1603165725
75,Cabo San Lucas,22.89,-109.91,28.33,64,0,0.45,MX,1603165726
76,Thompson,55.74,-97.86,-3.0,73,90,2.6,CA,1603165503
77,Bredasdorp,-34.53,20.04,13.0,87,53,4.1,ZA,1603165635
78,Karratha,-20.74,116.85,29.63,35,0,6.65,AU,1603165667
79,Jayanca,-6.39,-79.82,17.22,84,90,2.31,PE,1603165731
80,Gaya,24.78,85.0,26.0,78,7,1.5,IN,1603165732
81,Isangel,-19.55,169.27,27.0,65,90,0.5,VU,1603165733
82,Cherskiy,68.75,161.3,-5.29,94,73,1.48,RU,1603165734
83,San Juan Bautista,-14.01,-75.74,17.0,77,0,3.6,PE,1603165735
84,Sechura,-5.56,-80.82,18.37,80,41,4.69,PE,1603165692
85,Talnakh,69.49,88.4,-11.0,85,40,2.0,RU,1603165738
86,Nyköping,58.75,17.01,-4.0,92,97,1.0,SE,1603165739
87,Butaritari,3.07,172.79,28.07,76,100,5.08,KI,1603165740
88,Lata,40.16,-8.33,17.22,94,100,0.45,PT,1603165741
89,Mirny,62.54,113.96,-3.0,68,75,6.0,RU,1603165742
90,San Rafael,-34.62,-68.33,14.79,33,0,0.73,AR,1603165743
91,New Norfolk,-42.78,147.06,21.11,47,70,0.89,AU,1603165745
92,Chimoio,-19.12,33.48,17.38,79,0,1.44,MZ,1603165746
93,Norman Wells,65.28,-126.83,-10.0,85,40,4.6,CA,1603165747
94,Airai,-8.93,125.41,27.88,33,0,2.47,TL,1603165748
95,Tautira,-17.73,-149.15,28.0,61,20,6.7,PF,1603165666
96,Bambanglipuro,-7.95,110.28,31.05,58,75,3.47,ID,1603165668
97,Tonekābon,36.82,50.87,16.0,77,0,2.1,IR,1603165752
98,Altay,47.87,88.12,4.87,58,12,1.17,CN,1603165753
99,Pekan,3.48,103.4,30.0,74,20,1.0,MY,1603165754
100,Usogorsk,63.41,48.69,-0.97,98,97,2.64,RU,1603165755
101,Sibiti,-3.68,13.35,20.49,100,98,0.96,CG,1603165757
102,Camacha,33.08,-16.33,21.0,88,75,10.3,PT,1603165758
103,Saskylakh,71.92,114.08,-4.85,98,87,1.75,RU,1603165478
104,Bluff,-46.6,168.33,11.11,69,40,5.36,NZ,1603165760
105,Carutapera,-1.2,-46.02,25.89,82,68,3.37,BR,1603165761
106,Mâncio Lima,-7.61,-72.9,23.78,75,83,0.89,BR,1603165763
107,Nikolskoye,59.7,30.79,2.0,80,90,6.0,RU,1603165764
108,Bone,51.97,12.14,4.44,94,100,3.57,DE,1603165765
109,Lüderitz,-26.65,15.16,14.04,68,0,9.88,NA,1603165766
110,Aitape,-3.14,142.35,29.8,66,67,2.56,PG,1603165767
111,Padang,-0.95,100.35,31.36,53,59,2.77,ID,1603165769
112,Rāmgarh,23.63,85.52,22.0,83,10,0.96,IN,1603165770
113,Los Llanos de Aridane,28.66,-17.92,25.0,73,84,7.2,ES,1603165771
114,Arraial do Cabo,-22.97,-42.03,22.33,83,96,9.73,BR,1603165772
115,Puerto Ayora,-0.74,-90.35,21.11,92,87,2.24,EC,1603165635
116,Port Alfred,-33.59,26.89,16.56,73,11,9.37,ZA,1603165599
117,Punta Arenas,-53.15,-70.92,4.0,69,20,7.2,CL,1603165609
118,Tabou,4.42,-7.35,24.77,80,99,2.94,CI,1603165669
119,Fonte Boa,-2.5,-66.27,23.6,94,77,0.62,BR,1603165778
120,Gambēla,8.25,34.58,20.58,82,19,1.52,ET,1603165779
121,Zimovniki,47.15,42.46,10.17,83,64,2.69,RU,1603165780
122,Sobolevo,54.43,31.9,2.31,88,50,6.21,RU,1603165781
123,Borodino,55.91,94.9,1.36,80,100,7.53,RU,1603165782
124,Hermanus,-34.42,19.23,13.89,88,31,1.34,ZA,1603165543
125,Soyo,-6.13,12.37,24.83,84,82,3.02,AO,1603165640
126,Barrow,71.29,-156.79,-4.0,79,90,5.1,US,1603165535
127,Yellowknife,62.46,-114.35,-3.0,79,75,0.73,CA,1603165723
128,Port Hedland,-20.32,118.57,31.0,58,0,6.2,AU,1603165788
129,Dukat,62.55,155.55,-7.05,96,100,2.25,RU,1603165789
130,Goundam,16.41,-3.67,29.49,17,0,4.98,ML,1603165791
131,Saint-Augustin,51.23,-58.65,6.71,79,96,2.62,CA,1603165792
132,Chui,-33.7,-53.46,17.44,85,9,6.3,UY,1603165793
133,Ochakiv,46.61,31.55,4.0,93,0,3.0,UA,1603165794
134,Te Anau,-45.42,167.72,12.3,52,5,2.74,NZ,1603165795
135,Kahului,20.89,-156.47,31.0,48,20,3.6,US,1603165796
136,Hirara,24.8,125.28,29.0,74,75,7.7,JP,1603165798
137,Ribeira Grande,38.52,-28.7,17.72,69,38,12.07,PT,1603165799
138,Georgiyevka,43.04,74.71,7.0,42,0,3.0,KZ,1603165800
139,Elko,41.0,-115.5,13.33,28,1,1.9,US,1603165503
140,Fairbanks,64.84,-147.72,-5.56,85,90,0.89,US,1603165532
141,Upernavik,72.79,-56.15,0.67,91,100,2.72,GL,1603165593
142,Pevek,69.7,170.31,-3.01,93,21,6.39,RU,1603165805
143,Manggar,-2.88,108.27,29.89,65,78,3.02,ID,1603165806
144,Sorong,-0.88,131.25,29.38,72,91,3.85,ID,1603165807
145,Inta,66.03,60.17,-6.07,93,100,2.38,RU,1603165808
146,São Filipe,14.9,-24.5,27.38,72,23,2.17,CV,1603165809
147,Hobart,-42.88,147.33,21.11,59,20,5.7,AU,1603165686
148,Rovaniemi,66.5,25.72,-4.0,92,90,3.6,FI,1603165812
149,Mount Gambier,-37.83,140.77,15.0,62,90,3.6,AU,1603165813
150,Faanui,-16.48,-151.75,26.34,78,31,8.42,PF,1603165814
151,Ovalle,-30.6,-71.2,13.18,48,0,0.74,CL,1603165815
152,Huarmey,-10.07,-78.15,16.85,85,2,2.85,PE,1603165534
153,Macapá,0.04,-51.07,28.0,78,40,2.1,BR,1603165779
154,Ulaanbaatar,47.91,106.88,-5.0,67,75,11.0,MN,1603165819
155,Burnie,-41.07,145.92,15.0,65,5,6.26,AU,1603165820
156,Kapaa,22.08,-159.32,28.0,69,40,3.1,US,1603165555
157,Pisco,-13.7,-76.22,17.0,77,0,3.6,PE,1603165817
158,Ancud,-41.87,-73.82,6.67,93,75,3.1,CL,1603165823
159,Tuatapere,-46.13,167.68,11.11,68,71,4.92,NZ,1603165825
160,Mercedes,-34.65,-59.43,15.0,85,100,7.6,AR,1603165826
161,Klaksvík,62.23,-6.59,4.0,69,16,3.6,FO,1603165827
162,Letlhakane,-21.42,25.58,23.58,20,4,2.74,BW,1603165828
163,Lagoa,39.05,-27.98,17.33,70,2,13.22,PT,1603165829
164,Tasiilaq,65.61,-37.64,-3.0,100,86,2.1,GL,1603165830
165,Marsá Maţrūḩ,31.35,27.25,21.0,73,49,1.78,EG,1603165832
166,Nishihara,26.18,127.76,30.0,70,75,8.2,JP,1603165555
167,Muromtsevo,56.37,75.24,6.35,81,75,2.89,RU,1603165834
168,Kenai,60.55,-151.26,2.78,80,75,2.1,US,1603165835
169,Asmara,15.33,38.93,11.55,84,0,2.28,ER,1603165836
170,Geraldton,-28.77,114.6,23.0,49,40,4.6,AU,1603165635
171,Severo-Kuril'sk,50.68,156.12,5.2,67,90,7.53,RU,1603165839
172,Santa Maria,-29.68,-53.81,20.43,71,0,2.02,BR,1603165683
173,Lorengau,-2.02,147.27,29.36,66,100,1.93,PG,1603165829
174,Wilkie,52.42,-108.7,-6.0,62,90,4.1,CA,1603165842
175,Maniitsoq,65.42,-52.9,3.91,83,100,15.54,GL,1603165843
176,Pudozh,61.81,36.53,-1.94,99,78,1.89,RU,1603165845
177,Vila Velha,-20.33,-40.29,21.0,94,75,2.1,BR,1603165641
178,Gimbi,9.17,35.83,12.73,100,0,0.69,ET,1603165847
179,Ţahţā,26.77,31.5,22.0,37,0,2.6,EG,1603165848
180,Omsukchan,62.53,155.8,-3.72,95,100,2.0,RU,1603165849
181,Emerald,-23.53,148.17,33.0,29,51,4.1,AU,1603165850
182,Mehamn,71.04,27.85,3.0,80,40,7.7,NO,1603165852
183,Broken Hill,-31.95,141.43,23.0,25,95,3.1,AU,1603165853
184,Tambacounda,13.75,-13.76,25.0,88,0,1.0,SN,1603165854
185,Melle,52.2,8.35,7.22,74,99,0.45,DE,1603165689
186,Husavik,66.04,-17.34,-1.0,86,80,2.1,IS,1603165856
187,Bathsheba,13.22,-59.52,27.0,78,40,2.1,BB,1603165692
188,Kloulklubed,7.04,134.26,30.0,74,75,2.1,PW,1603165859
189,Longyearbyen,78.22,15.64,-2.0,68,75,1.5,SJ,1603165790
190,Rabaul,-4.2,152.17,28.77,71,92,2.06,PG,1603165861
191,Aberdeen,57.14,-2.1,10.0,93,75,2.6,GB,1603165862
192,Chapleau,47.84,-83.4,-1.43,97,100,1.87,CA,1603165863
193,Beringovskiy,63.05,179.32,4.15,93,96,5.26,RU,1603165805
194,Swellendam,-34.02,20.44,13.0,87,69,4.1,ZA,1603165866
195,Roebourne,-20.78,117.13,30.82,29,0,6.52,AU,1603165867
196,Ahipara,-35.17,173.17,18.03,67,96,4.28,NZ,1603165868
197,Itacoatiara,-3.14,-58.44,26.1,62,87,0.35,BR,1603165869
198,Conakry,9.54,-13.68,26.78,86,64,3.51,GN,1603165870
199,Peleduy,59.63,112.74,-1.51,90,100,5.04,RU,1603165872
200,Huoqiu,32.34,116.27,19.2,52,96,2.53,CN,1603165574
201,Ponta do Sol,32.67,-17.1,18.89,90,100,2.68,PT,1603165874
202,Peçanha,-18.55,-42.56,16.4,100,100,0.44,BR,1603165875
203,Senanga,-16.12,23.27,19.33,25,1,2.29,ZM,1603165876
204,Adelanto,34.58,-117.41,22.22,19,1,3.0,US,1603165877
205,Kavaratti,10.57,72.64,28.0,78,20,2.6,IN,1603165879
206,Krasnaya Zarya,52.78,37.68,1.61,88,2,5.44,RU,1603165880
207,Tocopilla,-22.09,-70.2,15.95,62,25,2.26,CL,1603165881
208,Carnarvon,-24.87,113.63,24.0,60,72,8.2,AU,1603165791
209,Senador José Porfírio,-2.59,-51.95,23.97,88,92,2.2,BR,1603165883
210,Torbay,47.67,-52.73,9.44,87,20,4.1,CA,1603165885
211,Tura,25.52,90.22,29.39,63,2,1.59,IN,1603165737
212,Mitsamiouli,-11.38,43.28,25.57,70,0,1.72,KM,1603165825
213,Caravelas,-17.71,-39.25,22.04,86,100,1.03,BR,1603165888
214,Sinnamary,5.38,-52.95,26.26,85,78,4.67,GF,1603165889
215,Poum,-20.23,164.02,24.59,67,1,4.93,NC,1603165890
216,Samarai,-10.62,150.67,27.33,81,23,3.9,PG,1603165667
217,Thesprotikó,39.25,20.78,16.0,72,20,3.6,GR,1603165893
218,Kjøpsvik,68.1,16.37,2.22,86,93,5.1,NO,1603165894
219,Prieska,-29.66,22.75,12.79,39,0,2.55,ZA,1603165895
220,Flinders,-34.58,150.86,21.11,66,71,1.79,AU,1603165896
221,Qasigiannguit,68.82,-51.19,3.0,74,100,3.1,GL,1603165897
222,Rādhanpur,23.83,71.6,31.51,59,26,2.41,IN,1603165898
223,Pueblo Nuevo,23.38,-105.38,14.3,78,4,2.63,MX,1603165900
224,Daru,-9.08,143.21,28.52,73,52,5.05,PG,1603165901
225,Lufilufi,-13.87,-171.6,29.0,79,75,4.6,WS,1603165902
226,Laas,46.62,10.7,7.78,50,5,1.0,IT,1603165903
227,Port Macquarie,-31.43,152.92,21.11,61,29,0.45,AU,1603165904
228,Saint Paul Harbor,57.79,-152.41,6.0,60,20,3.6,US,1603165905
229,Storsteinnes,69.24,19.23,-4.0,92,0,4.6,NO,1603165907
230,Iquitos,-3.75,-73.25,24.89,70,99,0.96,PE,1603165908
231,Sabang,5.89,95.32,28.42,71,16,1.44,ID,1603165909
232,Kumul,42.8,93.45,13.71,34,0,0.92,CN,1603165670
233,Ostrovnoy,68.05,39.51,2.01,83,100,5.69,RU,1603165911
234,Vardø,70.37,31.11,2.0,74,40,7.2,NO,1603165912
235,Oranjemund,-28.55,16.43,13.17,88,9,4.56,NA,1603165914
236,Port Hardy,50.7,-127.42,7.0,93,40,2.1,CA,1603165915
237,Mar del Plata,-38.0,-57.56,11.67,62,5,4.1,AR,1603165916
238,Turkmenabat,39.07,63.58,7.0,52,0,3.1,TM,1603165917
239,Lebu,-37.62,-73.65,8.81,77,1,6.4,CL,1603165918
240,Mossamedes,-15.2,12.15,19.12,84,13,1.46,AO,1603165919
241,Doha,25.29,51.53,28.33,51,0,2.6,QA,1603165904
242,La Ronge,55.1,-105.28,-3.0,53,90,2.6,CA,1603165922
243,Blythe,33.61,-114.6,27.0,19,1,0.21,US,1603165856
244,Iqaluit,63.75,-68.51,-4.0,85,90,4.1,CA,1603165924
245,Aykhal,66.0,111.5,-7.0,92,90,1.0,RU,1603165925
246,Clyde River,70.47,-68.59,0.0,91,90,7.2,CA,1603165786
247,Fayaoué,-20.65,166.53,24.32,60,5,0.78,NC,1603165928
248,Parkent,41.29,69.68,14.0,41,0,2.1,UZ,1603165929
249,Lincoln,40.8,-96.67,5.0,65,1,3.1,US,1603165651
250,Erenhot,43.65,111.98,14.39,31,31,16.6,CN,1603165931
251,Morón,-34.65,-58.62,13.89,93,90,8.7,AR,1603165933
252,Havelock,34.88,-76.9,19.44,93,90,3.6,US,1603165934
253,Navahrudak,53.6,25.83,1.49,100,26,4.77,BY,1603165935
254,Porto Torres,40.84,8.4,9.0,100,24,1.0,IT,1603165936
255,Mvuma,-19.28,30.53,15.92,42,0,1.7,ZW,1603165938
256,Coyhaique,-45.58,-72.07,2.0,95,11,1.5,CL,1603165752
257,Qingdao,36.1,120.37,21.11,46,80,5.0,CN,1603165912
258,Preobrazheniye,42.9,133.91,14.82,53,0,1.66,RU,1603165941
259,Katobu,-4.94,122.53,34.08,39,100,0.54,ID,1603165942
260,Saint-Michel-des-Saints,46.68,-73.92,5.25,92,100,0.75,CA,1603165944
261,New Plymouth,-39.07,174.08,11.11,87,100,3.13,NZ,1603165945
262,Necochea,-38.55,-58.74,9.44,69,0,1.79,AR,1603165946
263,Dwārka,22.24,68.97,29.98,70,66,3.34,IN,1603165948
264,Rawson,-43.3,-65.1,10.38,47,0,3.88,AR,1603165949
265,Namalenga,-10.95,39.1,22.16,79,1,0.91,TZ,1603165950
266,Ullapool,57.9,-5.16,10.56,56,100,1.34,GB,1603165951
267,Touros,-5.2,-35.46,23.0,88,40,1.5,BR,1603165952
268,Makar'yev,57.88,43.81,0.19,97,85,2.92,RU,1603165953
269,Riyadh,24.69,46.72,15.0,38,0,1.0,SA,1603165724
270,Bambous Virieux,-20.34,57.76,25.56,78,40,5.1,MU,1603165956
271,Vanimo,-2.67,141.3,30.36,61,57,2.46,PG,1603165957
272,Luganville,-15.53,167.17,29.0,70,40,1.5,VU,1603165958
273,Garango,11.8,-0.55,27.07,62,37,4.2,BF,1603165960
274,Narsaq,60.92,-46.05,0.0,86,98,2.1,GL,1603165961
275,Araouane,18.9,-3.53,28.44,15,0,3.68,ML,1603165962
276,Biak,-0.91,122.88,29.19,66,100,3.96,ID,1603165963
277,Mahanje,-9.93,35.33,18.71,77,14,1.54,TZ,1603165964
278,Aswān,24.09,32.91,25.09,25,0,3.72,EG,1603165966
279,Camaná,-16.62,-72.71,16.21,78,51,3.4,PE,1603165967
280,Saint Anthony,45.02,-93.22,0.0,92,1,1.63,US,1603165968
281,Thaba-Tseka,-29.52,28.61,13.24,36,0,2.38,LS,1603165969
282,Tarakan,3.3,117.63,26.62,81,100,2.85,ID,1603165971
283,Gamba,-2.65,10.0,24.54,90,100,2.61,GA,1603165972
284,Luancheng,37.88,114.65,16.0,63,100,1.0,CN,1603165973
285,Yangi Marg`ilon,40.43,71.72,16.0,25,0,1.0,UZ,1603165974
286,Winslow,35.02,-110.7,15.0,18,1,2.1,US,1603165742
287,Tabuk,17.42,121.44,26.45,86,100,7.1,PH,1603165977
288,Phan Thiet,10.93,108.1,29.68,68,95,0.92,VN,1603165978
289,Horki,54.29,30.98,2.0,93,75,5.0,BY,1603165979
290,Beyneu,45.32,55.2,12.6,35,1,3.76,KZ,1603165980
291,Guanare,9.04,-69.74,23.64,86,96,1.26,VE,1603165981
292,Dalbandin,28.89,64.41,17.81,24,0,3.42,PK,1603165982
293,Messina,38.19,15.55,16.67,87,40,1.57,IT,1603165956
294,Pemba,-12.97,40.52,24.23,83,1,1.18,MZ,1603165985
295,Iwanai,42.97,140.51,15.49,45,52,4.32,JP,1603165986
296,Khammam,17.25,80.15,26.69,77,98,1.48,IN,1603165987
297,Newberry,34.27,-81.62,15.56,87,1,1.5,US,1603165988
298,Armidale,-30.52,151.65,17.22,71,93,1.79,AU,1603165990
299,Puerto Madryn,-42.77,-65.04,10.61,49,0,4.26,AR,1603165991
300,Batagay-Alyta,67.8,130.41,-9.78,94,100,1.3,RU,1603165992
301,Kysyl-Syr,63.9,122.76,-4.0,95,99,3.68,RU,1603165993
302,Elizabeth City,36.29,-76.25,19.0,100,90,3.1,US,1603165708
303,Margate,51.38,1.39,13.33,74,100,1.79,GB,1603165822
304,Kyaikto,17.3,97.02,25.09,84,99,3.24,MM,1603165997
305,Khatanga,71.97,102.5,-10.34,97,81,2.58,RU,1603165998
306,Sambava,-14.27,50.17,25.0,66,54,5.78,MG,1603165999
307,Comodoro Rivadavia,-45.87,-67.5,11.0,40,0,5.7,AR,1603166000
308,Iregszemcse,46.69,18.19,7.22,92,12,1.34,HU,1603166001
309,Kimbe,-5.55,150.14,30.09,66,99,1.55,PG,1603166003
310,St. Marys,30.73,-81.55,24.44,94,75,6.7,US,1603165875
311,Praia da Vitória,38.73,-27.07,16.0,82,20,11.38,PT,1603166005
312,Hofn,64.25,-15.21,3.09,75,0,4.57,IS,1603165829
313,Dauphin,51.15,-100.05,-2.0,68,90,3.1,CA,1603166007
314,Oistins,13.07,-59.53,27.0,78,40,2.1,BB,1603166008
315,Ochamchira,42.71,41.47,16.45,79,78,1.32,GE,1603166010
316,Departamento de Maldonado,-34.67,-54.92,14.0,87,90,9.3,UY,1603166011
317,Muisne,0.6,-80.03,23.98,83,100,3.92,EC,1603166012
318,Muravlenko,63.79,74.52,-2.22,98,80,1.61,RU,1603166013
319,Portland,45.52,-122.68,14.44,71,75,2.6,US,1603165739
320,Lompoc,34.64,-120.46,14.0,93,90,2.6,US,1603166016
321,Sitka,57.05,-135.33,6.0,87,90,3.6,US,1603166017
322,San Julián,21.02,-102.17,15.55,51,12,2.18,MX,1603166018
323,George Town,5.41,100.34,30.0,74,20,2.1,MY,1603166019
324,Korla,41.76,86.15,15.74,29,0,2.8,CN,1603165983
325,Chandrakona,22.73,87.52,30.11,60,18,3.52,IN,1603166021
326,Pangnirtung,66.15,-65.71,-4.99,91,96,2.72,CA,1603166008
327,Brunswick,41.24,-81.84,11.11,100,90,2.1,US,1603166024
328,Hualmay,-11.1,-77.61,16.36,87,5,2.99,PE,1603166013
329,Bjørnevatn,69.67,29.98,2.0,88,75,7.2,NO,1603166026
330,La Peca,-5.61,-78.44,20.51,79,32,1.29,PE,1603166027
331,Excelsior Springs,39.34,-94.23,6.11,60,90,1.5,US,1603166028
332,Puerto Escondido,15.85,-97.07,29.0,70,75,1.5,MX,1603165768
333,Chihuahua,28.5,-106.0,24.0,25,5,2.1,MX,1603165956
334,Khovu-Aksy,51.13,93.6,-3.54,88,99,2.89,RU,1603166032
335,Kondoa,-4.9,35.78,17.78,79,96,3.12,TZ,1603166033
336,Birecik,37.03,37.99,13.0,71,37,0.54,TR,1603166034
337,Hambantota,6.12,81.12,31.0,66,20,5.1,LK,1603166035
338,Berlevåg,70.86,29.09,3.0,79,40,7.7,NO,1603165770
339,Zhezkazgan,47.8,67.71,8.51,43,0,3.94,KZ,1603166038
340,Hay River,60.82,-115.8,-7.0,73,20,1.0,CA,1603166039
341,Cap Malheureux,-19.98,57.61,25.56,67,0,5.36,MU,1603166040
342,Teabo,20.4,-89.28,22.5,97,7,1.13,MX,1603166041
343,Bom Jesus da Lapa,-13.26,-43.42,25.18,62,74,1.91,BR,1603166042
344,Wajima,37.4,136.9,20.0,52,40,3.6,JP,1603166044
345,Kruisfontein,-34.0,24.73,15.56,63,53,0.89,ZA,1603166045
346,Bereda,43.27,-7.54,14.44,87,100,5.81,ES,1603165868
347,Pandan,14.05,124.17,27.34,83,100,6.81,PH,1603166047
348,Opuwo,-18.06,13.84,16.18,32,0,1.47,NA,1603166048
349,Ternate,0.8,127.4,29.27,66,89,3.76,ID,1603166049
350,Bitung,1.45,125.18,31.0,62,40,2.6,ID,1603166051
351,Nelson Bay,-32.72,152.15,21.0,60,40,6.7,AU,1603166052
352,Sabzawār,36.21,57.68,5.0,30,0,5.1,IR,1603166053
353,Pestyaki,56.71,42.67,2.18,88,98,4.89,RU,1603166054
354,Ruhengeri,-1.5,29.64,14.88,84,99,0.39,RW,1603166055
355,Solo,13.75,120.9,25.0,94,100,4.95,PH,1603166056
356,Camabatela,-8.19,15.38,17.67,100,99,1.52,AO,1603166058
357,Pahrump,36.21,-115.98,18.89,18,0,2.24,US,1603166058
358,Itajubá,-22.43,-45.45,20.0,80,100,0.43,BR,1603165959
359,Ginir,7.13,40.7,14.49,85,3,2.5,ET,1603166061
360,Katsuura,35.13,140.3,20.0,55,78,0.89,JP,1603165823
361,Scarborough,54.28,-0.4,10.0,86,100,2.24,GB,1603166063
362,Hargeisa,9.56,44.06,20.44,35,0,0.87,SO,1603166064
363,Somerset,40.57,-74.55,13.33,93,75,1.94,US,1603166066
364,Swan River,52.11,-101.27,-5.1,84,0,1.74,CA,1603166067
365,Shakawe,-18.37,21.85,19.72,25,0,1.93,BW,1603166068
366,Machiques,10.06,-72.55,24.79,75,100,1.56,VE,1603166069
367,Deputatsky,69.3,139.9,-11.24,96,94,1.32,RU,1603166070
368,Turukhansk,65.82,87.98,-8.74,96,99,1.87,RU,1603165831
369,Avera,33.19,-82.53,17.0,100,1,2.1,US,1603166072
370,Marigot,18.07,-63.08,28.0,69,20,4.6,MF,1603166074
371,Cayhagan,9.67,122.43,28.71,76,100,2.5,PH,1603166075
372,‘Āhuimanu,21.44,-157.84,28.0,74,20,4.1,US,1603166076
373,Ishigaki,24.34,124.16,29.0,79,75,9.8,JP,1603166077
374,Kulhudhuffushi,6.62,73.07,27.85,77,3,6.23,MV,1603166078
375,Big Rapids,43.7,-85.48,3.33,100,90,1.5,US,1603166079
376,Alta Gracia,-31.65,-64.43,15.56,75,93,0.89,AR,1603166081
377,Arrondissement de Dinan,48.42,-2.25,15.0,82,90,5.7,FR,1603166082
378,Cuyo,10.85,121.01,27.7,78,100,2.9,PH,1603166083
379,Gornorechenskiy,44.26,135.11,15.7,34,0,2.01,RU,1603166084
380,Longhua,23.61,114.19,26.06,51,0,2.67,CN,1603166085
381,Mayo,38.89,-76.51,16.67,87,1,1.5,US,1603165970
382,Sept-Îles,50.2,-66.38,5.0,100,90,2.1,CA,1603165788
383,Doumé,4.23,13.45,18.94,97,64,0.79,CM,1603166089
384,Tveit,58.23,8.12,4.0,93,100,2.6,NO,1603166090
385,São José da Coroa Grande,-8.9,-35.15,23.78,78,25,4.16,BR,1603165885
386,Petersberg,50.56,9.71,5.56,84,96,1.34,DE,1603166092
387,Lavrentiya,65.58,-171.0,0.94,81,1,2.29,RU,1603166093
388,Asău,46.43,26.4,1.11,100,0,1.62,RO,1603166095
389,Maragogi,-9.01,-35.22,23.48,80,19,4.03,BR,1603166096
390,Bandarbeyla,9.49,50.81,26.85,57,13,2.9,SO,1603166097
391,San Patricio,28.02,-97.52,26.11,88,40,5.7,US,1603166098
392,Salym,60.06,71.48,2.88,99,100,2.81,RU,1603166099
393,Salta,-24.79,-65.41,22.0,46,89,2.6,AR,1603166072
394,Kalabo,-14.97,22.68,18.64,25,2,1.54,ZM,1603166102
395,Baturité,-4.33,-38.88,23.26,83,58,2.57,BR,1603166103
396,Salalah,17.02,54.09,26.0,57,40,1.0,OM,1603166002
397,Lethem,3.38,-59.8,26.54,69,100,2.55,GY,1603166105
398,Garissa,-0.45,39.64,25.0,70,41,5.89,KE,1603166106
399,Tommot,58.96,126.29,-1.59,96,100,2.35,RU,1603166108
400,Kushima,31.46,131.23,22.0,56,20,7.2,JP,1603166109
401,Sitrah,26.15,50.62,27.0,57,0,3.6,BH,1603166110
402,Nikita,44.53,34.23,7.67,68,85,2.41,UA,1603166111
403,Nabire,-3.37,135.48,30.21,62,100,2.73,ID,1603166106
404,Pitimbu,-7.47,-34.81,23.0,88,20,2.6,BR,1603166076
405,Raudeberg,61.99,5.14,6.11,64,100,4.29,NO,1603166114
406,Roi Et,15.75,103.75,25.0,78,75,3.6,TH,1603166116
407,Merke,42.87,73.18,16.71,27,0,2.37,KZ,1603166117
408,Ayorou,14.73,0.92,29.84,27,0,0.46,NE,1603166118
409,Serebryansk,49.69,83.29,2.0,80,5,2.0,KZ,1603166119
410,Grindavik,63.84,-22.43,0.0,72,20,3.1,IS,1603166120
411,Karatau,43.17,70.47,11.83,40,0,1.8,KZ,1603166121
412,Shimoda,34.67,138.95,19.0,63,75,8.7,JP,1603166123
413,Skjervøy,70.03,20.97,3.22,72,100,2.84,NO,1603166124
414,Yudong,29.39,106.52,16.11,87,40,6.0,CN,1603166125
415,Festus,38.22,-90.4,8.89,98,93,2.09,US,1603166126
416,Quatre Cocos,-20.21,57.76,25.56,78,40,5.1,MU,1603166127
417,Røros,62.57,11.38,-6.0,92,56,1.5,NO,1603166128
418,Champasak,14.75,106.0,26.0,88,90,1.0,LA,1603166130
419,Clearlake,38.96,-122.63,20.0,43,0,1.06,US,1603166131
420,Acapulco de Juárez,16.86,-99.89,27.24,79,16,2.71,MX,1603166059
421,Mackay,-21.15,149.2,30.0,51,0,7.2,AU,1603166133
422,Xichang,27.9,102.26,12.77,80,98,0.98,CN,1603166134
423,Kiryat Gat,31.61,34.76,21.67,88,8,1.0,IL,1603166136
424,Byron Bay,-28.65,153.62,23.33,53,40,6.7,AU,1603165876
425,Marabá,-5.37,-49.12,26.14,64,68,1.83,BR,1603166138
426,Mumford,5.26,-0.76,24.6,90,51,3.83,GH,1603166139
427,Dawlatabad,36.41,64.91,19.32,24,0,1.9,AF,1603166140
428,Nouadhibou,20.93,-17.03,26.0,54,30,6.2,MR,1603166141
429,Sur,22.57,59.53,28.25,48,10,5.81,OM,1603165987
430,Superior,46.72,-92.1,1.0,94,90,1.4,US,1603166144
431,Kincardine,56.07,-3.72,10.0,93,100,2.6,GB,1603166145
432,Umm Hājar,13.3,19.7,27.08,26,0,2.59,TD,1603166146
433,Beira,-19.84,34.84,20.43,91,10,2.88,MZ,1603166147
434,Bandar-e Lengeh,26.56,54.88,22.0,64,0,3.1,IR,1603166149
435,Álamos,27.02,-108.93,26.11,75,0,1.19,MX,1603166150
436,Ballina,-28.87,153.57,24.0,53,40,6.7,AU,1603166151
437,Zaranj,30.97,61.88,12.0,30,0,2.1,AF,1603166152
438,Baykalovo,57.4,63.77,4.96,88,85,2.36,RU,1603166153
439,Vestmannaeyjar,63.44,-20.27,3.94,76,64,1.38,IS,1603166155
440,Meybod,32.25,54.02,10.0,16,0,3.1,IR,1603166156
441,Tilichiki,60.47,166.1,1.77,100,100,2.15,RU,1603166157
442,Bodden Town,19.28,-81.25,27.78,88,93,6.23,KY,1603166158
443,Teluk Nibung,3.0,99.82,29.88,62,100,0.51,ID,1603166159
444,Krasnosel'kup,65.7,82.47,-4.97,98,100,4.33,RU,1603166160
445,Shihezi,44.3,86.03,11.11,39,0,1.57,CN,1603166162
446,College,64.86,-147.8,-5.56,85,90,0.84,US,1603166163
447,Nioro,13.35,-15.75,24.9,70,0,1.57,GM,1603165889
448,Palmer,42.16,-72.33,12.22,81,75,1.56,US,1603165914
449,Araxá,-19.59,-46.94,16.88,94,100,2.41,BR,1603166166
450,Codrington,-38.27,141.97,13.83,74,88,3.79,AU,1603166168
451,Tazovsky,67.47,78.7,-7.76,97,58,3.47,RU,1603166169
452,Sisimiut,66.94,-53.67,3.23,77,100,6.87,GL,1603165933
453,Anloga,5.79,0.9,24.0,88,20,1.5,GH,1603166171
454,Harper,4.38,-7.72,24.84,80,100,2.91,LR,1603166172
455,Warman,52.32,-106.57,-5.0,57,75,4.6,CA,1603166174
456,Aksu,41.12,80.26,15.74,31,0,0.35,CN,1603166175
457,Penzance,50.12,-5.54,14.0,100,39,8.2,GB,1603166176
458,Matara,5.95,80.54,28.98,69,100,6.01,LK,1603166177
459,Funadhoo,6.15,73.27,27.87,78,28,6.1,MV,1603166178
460,Sanmenxia,34.77,111.18,19.56,35,100,2.71,CN,1603166179
461,Grand Forks,47.94,-97.43,-3.0,73,75,1.75,US,1603166181
462,São João da Barra,-21.64,-41.05,22.27,85,100,4.98,BR,1603166182
463,Westport,41.14,-73.36,16.0,77,1,3.1,US,1603166135
464,Ribeira Brava,32.65,-17.07,18.89,98,100,3.58,PT,1603166184
465,Novy Urengoy,66.08,76.63,-3.66,98,98,2.84,RU,1603166007
466,Asino,57.0,86.15,1.13,93,100,6.76,RU,1603166186
467,Ihosy,-22.4,46.12,19.07,71,12,3.44,MG,1603166188
468,Ola,59.58,151.28,-0.18,89,84,3.22,RU,1603166189
469,Virginia Beach,36.85,-75.98,20.0,88,82,4.6,US,1603166058
470,Saint-François,46.42,3.91,15.0,67,96,6.2,FR,1603166191
471,Jumla,29.27,82.18,18.58,26,0,1.31,NP,1603166192
472,Venkatagiri,13.97,79.58,27.0,83,75,1.93,IN,1603166193
473,San Andrés,12.58,-81.7,27.0,88,75,3.09,CO,1603165974
474,Galveston,29.37,-94.97,26.11,78,1,4.6,US,1603166196
475,Shache,38.42,77.24,15.61,28,0,0.84,CN,1603166197
476,Atbasar,51.8,68.33,9.63,68,10,4.62,KZ,1603166198
477,Trincomalee,8.57,81.23,29.82,68,74,6.34,LK,1603166199
478,Kandalaksha,67.16,32.41,0.12,95,56,3.54,RU,1603166201
479,Harrisburg,40.27,-76.88,16.0,77,40,5.1,US,1603166140
480,Adrar,20.5,-10.07,26.89,22,0,4.15,MR,1603165998
481,Whitehorse,60.72,-135.05,-5.0,79,90,1.0,CA,1603166204
482,Atikokan,48.76,-91.62,-3.89,86,0,1.1,CA,1603166205
483,Flin Flon,54.77,-101.86,-4.76,91,23,1.64,CA,1603166010
484,Imbituba,-28.24,-48.67,22.0,88,75,4.1,BR,1603166208
485,San Ramon,37.78,-121.98,22.22,68,1,2.6,US,1603166111
486,Qaqortoq,60.72,-46.03,0.0,88,100,2.1,GL,1603166210
487,Tegul'det,57.31,88.17,0.56,95,100,5.1,RU,1603166211
488,Khani,41.96,42.96,16.0,93,90,1.0,GE,1603166212
489,Broome,42.25,-75.83,13.33,93,90,4.6,US,1603166214
490,Khovd,48.01,91.64,-1.12,79,23,1.24,MN,1603166005
491,Kannur,11.87,75.36,24.0,94,75,1.0,IN,1603165970
492,Kang,-23.68,22.79,23.6,22,17,1.88,BW,1603166217
493,São Miguel do Araguaia,-13.28,-50.16,22.26,81,100,1.36,BR,1603166218
494,Inuvik,68.35,-133.72,-5.0,92,90,1.5,CA,1603165964
495,Otradnoye,59.78,30.82,1.11,80,90,5.0,RU,1603166221
496,Mayumba,-3.43,10.66,24.95,88,100,1.83,GA,1603166222
497,Manavālakurichi,8.13,77.3,27.0,94,75,2.1,IN,1603166223
498,Jalu,29.03,21.55,19.61,76,1,4.77,LY,1603165987
499,Bundaberg,-24.85,152.35,28.33,51,75,5.7,AU,1603165707
500,Fuerte,17.54,120.36,29.89,72,98,7.45,PH,1603166227
501,Iskateley,67.68,53.15,-4.18,97,99,1.66,RU,1603166228
502,Baruun-Urt,46.68,113.28,11.86,38,51,10.36,MN,1603166229
503,Lieksa,63.32,30.02,-0.35,96,98,5.41,FI,1603166230
504,Usinsk,65.99,57.53,-4.98,94,100,3.16,RU,1603166231
505,Gusau,12.16,6.66,24.49,46,0,2.28,NG,1603165993
506,Maiduguri,11.85,13.16,24.32,26,0,0.79,NG,1603166234
507,Seoul,37.57,126.98,21.0,48,1,1.16,KR,1603166233
508,Kasane,-17.82,25.15,19.0,37,0,3.1,BW,1603166236
509,Presidente Venceslau,-21.88,-51.84,20.85,89,71,4.22,BR,1603166237
510,Willowmore,-33.29,23.49,11.84,66,92,5.47,ZA,1603166238
511,Manado,1.49,124.85,31.0,62,40,2.6,ID,1603166240
512,Buíque,-8.62,-37.16,17.78,90,45,4.03,BR,1603166241
513,Ubari,26.59,12.78,17.27,69,19,7.44,LY,1603166242
514,Chapais,49.78,-74.85,-3.0,100,90,1.74,CA,1603166243
515,Nouakchott,18.09,-15.98,28.0,26,0,3.1,MR,1603166244
516,Mnogovershinnyy,53.94,139.92,0.62,84,5,8.44,RU,1603166246
517,Yulara,-25.24,130.99,30.0,42,22,5.1,AU,1603166247
518,Bubaque,11.28,-15.83,27.96,86,45,3.25,GW,1603166248
519,Gräfenhainichen,51.73,12.45,4.44,90,100,0.45,DE,1603166249
520,San Angelo,31.46,-100.44,17.78,67,1,2.1,US,1603166250
521,Roald,62.58,6.13,5.0,56,73,5.1,NO,1603166251
522,Kununurra,-15.77,128.73,38.0,33,32,3.6,AU,1603166253
523,Andenes,69.31,16.12,-3.0,86,0,3.6,NO,1603165998
524,Gilgit,35.92,74.31,17.02,24,0,2.2,PK,1603166104
525,Hanzhong,33.07,107.03,17.69,60,99,0.79,CN,1603166256
526,Hays,30.05,-98.03,25.0,85,5,2.68,US,1603166257
527,Jacareacanga,-6.22,-57.75,24.69,76,100,1.11,BR,1603166258
528,Samagaltay,50.6,95.0,-4.26,80,96,2.89,RU,1603166260
529,Boyolangu,-8.12,111.89,30.46,59,55,2.79,ID,1603166261
530,Dunedin,-45.87,170.5,10.56,71,94,6.71,NZ,1603166262
531,Alofi,-19.06,-169.92,26.0,69,75,7.2,NU,1603166263
532,Pital,2.27,-75.8,19.31,75,69,1.49,CO,1603166264
533,Kirkuk,35.47,44.39,18.17,28,0,1.14,IQ,1603166265
534,Naze,28.37,129.48,28.0,74,40,9.8,JP,1603166267
535,Øksfjord,70.24,22.35,2.0,92,75,1.5,NO,1603166268
536,Syamzha,60.02,41.06,0.04,99,96,1.08,RU,1603166269
537,Port Blair,11.67,92.75,28.82,78,51,7.17,IN,1603166270
538,Warri,5.52,5.75,23.63,95,28,1.18,NG,1603166271
539,Sampit,-2.53,112.95,33.08,58,100,0.52,ID,1603165974
540,Maitum,6.04,124.5,30.0,70,75,5.1,PH,1603166274
541,Azanka,58.04,64.79,2.85,84,21,2.25,RU,1603166275
542,Bismil,37.85,40.67,12.0,61,1,1.5,TR,1603166276
543,Kargasok,59.06,80.86,3.1,95,100,3.13,RU,1603166277
544,Half Moon Bay,37.46,-122.43,17.22,93,90,2.43,US,1603166247
545,Laguna,38.42,-121.42,22.22,43,1,1.91,US,1603166279
546,Sørland,67.67,12.69,0.0,66,75,2.6,NO,1603166281
547,Anykščiai,55.53,25.1,1.85,87,22,4.39,LT,1603166282
548,Labuhan,-6.88,112.21,30.9,61,32,5.18,ID,1603166283
549,Ljungby,56.83,13.94,3.0,100,100,2.1,SE,1603166284
550,Sibsāgar,26.98,94.63,28.0,83,75,2.1,IN,1603166166
551,Beeskow,52.17,14.25,6.67,33,100,2.8,DE,1603166286
552,Prainha,-1.8,-53.48,26.68,66,98,2.12,BR,1603166287
553,Pemangkat,1.17,108.97,29.57,66,62,2.95,ID,1603166289
554,Mazamet,43.49,2.37,16.0,72,87,17.5,FR,1603166290
555,Mossoró,-5.19,-37.34,22.89,75,100,4.19,BR,1603166291
556,Karaton,-6.34,106.1,32.0,55,20,4.1,ID,1603166292
557,Dingle,11.0,122.67,26.81,87,100,1.6,PH,1603166293
558,Svelvik,59.61,10.41,2.78,43,100,2.22,NO,1603166295
559,Manicoré,-5.81,-61.3,24.14,85,100,0.96,BR,1603166296
560,Meadow Lake,34.8,-106.54,18.0,15,1,1.1,US,1603166297
561,Zarechnyy,53.2,45.19,2.08,88,18,3.25,RU,1603166298
562,Chavakachcheri,9.66,80.16,28.51,74,100,7.37,LK,1603166299
563,Kashgar,39.45,75.98,13.0,28,0,4.0,CN,1603166300
564,San Luis,-33.3,-66.34,14.66,55,0,10.35,AR,1603166200
565,Crateús,-5.18,-40.68,22.24,71,5,1.68,BR,1603166303
566,Bama,11.52,13.69,23.71,32,0,0.94,NG,1603166304
567,Kalianget,-7.05,113.93,29.63,67,32,5.32,ID,1603166305
568,Nizhnekamsk,55.64,51.82,0.0,85,75,4.0,RU,1603166307
569,Cockburn Town,21.46,-71.14,27.79,75,95,4.69,TC,1603166308
570,Santa María del Río,21.8,-100.75,17.0,59,5,1.5,MX,1603166309
571,Galle,6.04,80.22,27.96,76,100,5.96,LK,1603166310
572,Udachny,66.42,112.4,-8.0,92,90,1.0,RU,1603166311
573,Carolina,18.38,-65.96,27.0,74,40,1.5,PR,1603166122
574,Gigmoto,13.78,124.39,27.8,82,100,5.99,PH,1603166313
575,Rialma,-15.31,-49.58,21.69,87,98,1.44,BR,1603166315
576,Anadyr,64.75,177.48,3.0,85,40,5.0,RU,1603166316
577,Saint Stephen,50.33,-4.9,14.0,93,75,8.7,GB,1603166317
578,Maumere,-8.62,122.21,29.74,64,24,0.88,ID,1603166318
